id	type	DescriptionTitle	PriceLabel	ListingDate	ReListingDate	Address	Suburb	State	PostCode	Property.lat	Property.lon	PropertyType	Agency.Id	Agency.Type	Agency.Name	Agent.Name	Beds	Baths	Cars	EER	PlotSize	Features
173492347	SALES_RESIDENTIAL	Ethics Constructions is pleased to bring this house and land package to the market.	By Negotiation	2017-04-03 20:44:21		(no street name provided)	Throsby	ACT	2914	-35.1854964	149.1617948	HOUSE_AND_LAND_PACKAGE	605189	Agent	Ethics Construction	Madhusudan Sidhu	4	2	2	6	582	
173671262	SALES_RESIDENTIAL	Jada Building Display House - Now Open by appointment CONSTRUCTION PRICE ONLY	$290,000-$420,000	2017-04-05 14:00:00		(no street name provided)	Denman Prospect	ACT	2611	-35.3015956	149.0230952	HOUSE_AND_LAND_PACKAGE	686753	Agent	Jada Building Projects Pty Ltd	Jada Building Projects	4	2	2	6		
173671442	SALES_RESIDENTIAL	Prime Location - Close to walking trails and reserve	$779,500	2017-04-05 14:00:00		(no street name provided)	Throsby	ACT	2914	-35.188144	149.16604	HOUSE_AND_LAND_PACKAGE	156975	Developer	Roman Developments	Laura Ghasemi	4	2	2	6	427	['FAMILY_ROOM', 'STUDY']
173667601	SALES_RESIDENTIAL	MONTGOMERY RISE- NEW BUILD - READY NOW	$780,000-$820,000	2017-04-09 08:24:51		(no street name provided)	Googong	NSW	2620	-35.44471258	149.22762989	HOUSE_AND_LAND_PACKAGE	4817	Builder	BLD Homes	Lisa Dimeski	4	2	2		480	['FAMILY_ROOM', 'NEW_CONSTRUCTION']
173711483	SALES_RESIDENTIAL	The Sirius package - a brand new 4 bedroom home you can afford	$585,000	2017-04-18 14:00:00		(no street name provided)	Ginninderra Estate	ACT	2615	-35.22440914	149.01192575	HOUSE_AND_LAND_PACKAGE	386	Agent	Premier Capital Properties	Rick Farzan	4	2	2	6	342	
173705524	SALES_RESIDENTIAL	Versatile 2 Storey Package - The choice is now yours .. Hurry before its gone	$669,000	2017-04-18 14:00:00		(no street name provided)	Ginninderra Estate	ACT	2615	-35.22440914	149.01192575	HOUSE_AND_LAND_PACKAGE	386	Agent	Premier Capital Properties	Rick Farzan	4	2	2	6	350	
173734194	SALES_RESIDENTIAL	Araluen Lifestyle	$320,000	2017-04-25 14:00:00		75/177 Badimara Street	Fisher	ACT	2611	-35.3596414	149.0577485	VILLA	80917	Agent	Ray White Canberra 	Micky Jacobs	2	1	1	4.5	0	
