id	type	DescriptionTitle	PriceLabel	ListingDate	ReListingDate	Address	Suburb	State	PostCode	Property.lat	Property.lon	PropertyType	Agency.Id	Agency.Type	Agency.Name	Agent.Name	Beds	Baths	Cars	EER	PlotSize	Features
174378477	SALES_RESIDENTIAL	4 bedroom - Deal Direct With The Builder	$699,000-$705,000	2017-11-08 01:56:47		(no street name provided)	Googong	NSW	2620	-35.4209244	149.2301113	HOUSE	5797	Builder	Vogue Constructions	Nick Gorrie	4	2	2		501	['FAMILY_ROOM', 'NEW_CONSTRUCTION']
174587312	SALES_RESIDENTIAL	The Nevaeh package - a brand new modern family home within reach	$580,000	2017-11-15 13:00:00		(no street name provided)	Ginninderra Estate	ACT	2615	-35.22440914	149.01192575	HOUSE_AND_LAND_PACKAGE	386	Agent	Premier Capital Properties	Rick Farzan	3	2	2	6	342	
174604644	SALES_RESIDENTIAL	The Nevaeh package - an ideal beginning for a young family	$590,500	2017-11-15 13:00:00		(no street name provided)	Ginninderra Estate	ACT	2615	-35.22440914	149.01192575	HOUSE_AND_LAND_PACKAGE	386	Agent	Premier Capital Properties	Rick Farzan	3	2	2	6	342	
174587311	SALES_RESIDENTIAL	Greenfell Gardens - All the features, land size and inclusions	$619,000+	2017-11-15 23:07:52		(no street name provided)	Taylor	ACT	2913	-35.1513231	149.1017806	TOWNHOUSE	567569	Agent	Aird Property Group	Daniel	4	3	2	6	484	
174629660	SALES_RESIDENTIAL	Stylish and spacious apartment with study plus mountain views	Over $295,000	2017-11-21 13:00:00		158/61 John Gorton Drive	Wright	ACT	2611	-35.3217467	149.0391435	APARTMENT	883084	Agent	McGrath Woden	Benjamin James	1	1	1	6	0	
174648949	SALES_RESIDENTIAL	Investor's Dream Home	$729,950	2017-11-28 20:39:12		1 Styles Street	Googong	NSW	2620	-35.41902851	149.23295705	HOUSE	582999	Builder	ITM Living		0	0				
